name,lon,lat,elev_m
上海,121.4737,31.2304,4
北京,116.4074,39.9042,43
拉萨,91.1409,29.6456,3650
东京,139.6917,35.6895,40
旧金山,-122.4194,37.7749,16
伦敦,-0.1276,51.5074,35
开罗,31.2357,30.0444,23
悉尼,151.2093,-33.8688,58
布宜诺斯艾利斯,-58.3816,-34.6037,25